{"pins": [{"lat": 34.0596706, "long": -118.2478878, "youtubeCode": "WHASYE2e5Xo", "youtubeTitle": "My War: Sammy Baca", "uploadDate": "2020-07-14T16:00:30Z", "formatted_Address": "717 W Temple St, Los Angeles, CA 90012, USA", "skatersName": "Sammy Baca", "timestamped": false}, {"lat": 34.0662317, "long": -118.2564648, "youtubeCode": "nYcJ53yM5Cw", "youtubeTitle": "Mikey Burton Pumps", "uploadDate": "2011-05-31T02:31:54Z", "formatted_Address": "1300 Cortez St, Los Angeles, CA 90026, USA", "skatersName": "Mikey Burton", "timestamped": true, "StartTimestamp": "25", "StopTimestamp": "36"}, {"lat": 34.0599115, "long": -118.2432411, "youtubeCode": "nYcJ53yM5Cw", "youtubeTitle": "Mikey Burton Pumps", "uploadDate": "2011-05-31T02:31:54Z", "formatted_Address": "245 Fort Moore Pl, Los Angeles, CA 90012, USA", "skatersName": "Mikey Burton", "timestamped": true, "StartTimestamp": "14", "StopTimestamp": "21"}, {"lat": 55.67115948794388, "long": 12.59524118300303, "youtubeCode": "cMa_MESflH0", "youtubeTitle": "CPH Open 2018 \u2013 40 Stair Rail Contest", "uploadDate": "2018-08-29T21:43:31Z", "formatted_Address": "Address not Specified.", "skatersName": "Not Specified.", "timestamped": false}, {"lat": 33.418697959080404, "long": -111.93870358389103, "youtubeCode": "BXhU-vC4Ww4", "youtubeTitle": "A HAPPY MEDIUM 3 (FULL VIDEO)", "uploadDate": "2020-03-24T21:11:08Z", "formatted_Address": "J. Russell and Bonita Nelson Fine Arts Center, 51 E 10th St, Tempe, AZ 85287, USA", "skatersName": "Miles Canevello", "timestamped": true, "StartTimestamp": "1586", "StopTimestamp": "1596"}]}